[
  { "id": "panda-base", "city": "chengdu", "name": "Base Ricerca Panda", "nameLocal": "成都大熊猫繁育研究基地", "category": "natura", "lat": 30.7333, "lng": 104.1456, "price": "~55 ¥ + navetta", "stars": 5, "booking": "obbligatoria — fascia oraria", "blurb": "Panda giganti e rossi nella foresta di bambù. Andateci all'apertura." },
  { "id": "jinli", "city": "chengdu", "name": "Jinli Ancient Street", "nameLocal": "锦里", "category": "storico", "lat": 30.6419, "lng": 104.0480, "stars": 4, "blurb": "Via storica di street food e teahouse, splendida con le lanterne. Accanto al Tempio di Wuhou." },
  { "id": "wuhou", "city": "chengdu", "name": "Tempio di Wuhou", "nameLocal": "武侯祠", "category": "storico", "lat": 30.6464, "lng": 104.0480, "price": "50 ¥", "stars": 4, "blurb": "Memoriale dei Tre Regni, adiacente a Jinli." },
  { "id": "kuanzhai", "city": "chengdu", "name": "Kuanzhai Xiangzi", "nameLocal": "宽窄巷子", "category": "storico", "lat": 30.6695, "lng": 104.0556, "stars": 4, "blurb": "Tre vicoli Qing restaurati: caffè, snack e pulizia delle orecchie." },
  { "id": "renmin-park", "city": "chengdu", "name": "People's Park (Heming Teahouse)", "nameLocal": "人民公园·鹤鸣茶社", "category": "intrattenimento", "lat": 30.6700, "lng": 104.0617, "stars": 4, "blurb": "Tè al gelsomino tra anziani che giocano a mahjong: la vita lenta di Chengdu." },
  { "id": "opera-sichuan", "city": "chengdu", "name": "Opera del Sichuan @ Shufeng Yayun", "nameLocal": "川剧·蜀风雅韵", "category": "intrattenimento", "lat": 30.6726, "lng": 104.0533, "stars": 5, "booking": "consigliata", "blurb": "Cambio di maschere (bian lian), sputafuoco e marionette. ~20:00." },
  { "id": "chen-mapo", "city": "chengdu", "name": "Chen Mapo Tofu", "nameLocal": "陈麻婆豆腐", "category": "cibo", "lat": 30.6798, "lng": 104.0588, "stars": 4, "blurb": "La sede storica del mapo tofu." },
  { "id": "bobo-hotpot-cd", "city": "chengdu", "name": "Hotpot sichuanese", "nameLocal": "四川火锅", "category": "cibo", "lat": 30.6580, "lng": 104.0700, "stars": 4, "blurb": "Il málà che intorpidisce le labbra — esperienza obbligata." },

  { "id": "hongya", "city": "chongqing", "name": "Hongya Cave", "nameLocal": "洪崖洞", "category": "moderno", "lat": 29.5615, "lng": 106.5830, "stars": 5, "booking": "gratis — affollatissima di sera", "blurb": "Stile Spirited Away, da vedere all'imbrunire." },
  { "id": "raffles", "city": "chongqing", "name": "Raffles City — Exploration Deck", "nameLocal": "来福士探索舱", "category": "moderno", "lat": 29.5667, "lng": 106.5894, "stars": 4, "blurb": "Il 'Crystal' sospeso a Chaotianmen, vista sui due fiumi." },
  { "id": "liziba", "city": "chongqing", "name": "Stazione di Liziba", "nameLocal": "李子坝站", "category": "moderno", "lat": 29.5550, "lng": 106.5160, "stars": 4, "blurb": "La metro che attraversa un palazzo." },
  { "id": "cableway-cq", "city": "chongqing", "name": "Yangtze River Cableway", "nameLocal": "长江索道", "category": "moderno", "lat": 29.5566, "lng": 106.5839, "price": "30 ¥", "stars": 4, "blurb": "Cabinovia sopra il fiume Yangtze." },
  { "id": "ciqikou", "city": "chongqing", "name": "Ciqikou Old Town", "nameLocal": "磁器口古镇", "category": "storico", "lat": 29.5800, "lng": 106.4480, "stars": 4, "blurb": "Borgo Ming su un promontorio: vicoli in pietra, street food e ceramiche." },
  { "id": "cruise-cq", "city": "chongqing", "name": "Crociera Due Fiumi", "nameLocal": "两江游船", "category": "intrattenimento", "lat": 29.5667, "lng": 106.5894, "stars": 4, "blurb": "Giro serale sui due fiumi con lo skyline illuminato." },
  { "id": "pei-jie", "city": "chongqing", "name": "Pei Jie Lao Huoguo", "nameLocal": "佩姐老火锅", "category": "cibo", "lat": 29.5530, "lng": 106.5760, "stars": 5, "blurb": "Hotpot leggendario — code lunghe." },
  { "id": "xiaoyadong", "city": "chongqing", "name": "Xiaoyadong Hotpot", "nameLocal": "小雅东火锅", "category": "cibo", "lat": 29.5500, "lng": 106.5700, "stars": 4, "blurb": "Hotpot in grotta sotto la strada — atmosfera autentica, meno turistica." },
  { "id": "bayi", "city": "chongqing", "name": "Bayi Food Street (Jiefangbei)", "nameLocal": "八一好吃街", "category": "cibo", "lat": 29.5570, "lng": 106.5770, "stars": 4, "blurb": "Street food nel cuore di Jiefangbei." },

  { "id": "avatar-park", "city": "zhangjiajie", "name": "National Forest Park (montagne Avatar)", "nameLocal": "张家界国家森林公园", "category": "natura", "lat": 29.3150, "lng": 110.4340, "price": "~225 ¥ (multi-giorno)", "stars": 5, "booking": "obbligatoria — biglietto a tempo + navette", "blurb": "Pilastri di arenaria nella nebbia — il paesaggio che ha ispirato Avatar." },
  { "id": "tianmen", "city": "zhangjiajie", "name": "Tianmen Mountain (Porta del Paradiso)", "nameLocal": "天门山", "category": "natura", "lat": 29.0500, "lng": 110.4790, "price": "~275 ¥", "stars": 5, "booking": "obbligatoria — fascia per la funivia", "blurb": "Funivia record e arco nella roccia: la Porta del Paradiso a 1.300 m." },
  { "id": "glass-bridge", "city": "zhangjiajie", "name": "Grand Canyon & Glass Bridge", "nameLocal": "张家界大峡谷玻璃桥", "category": "natura", "lat": 29.3760, "lng": 110.5560, "stars": 4, "booking": "obbligatoria — slot a tempo", "blurb": "Ponte di vetro sospeso sul canyon — solo per chi regge le vertigini." },
  { "id": "foxfairy", "city": "zhangjiajie", "name": "Tianmen Fox Fairy Show", "nameLocal": "天门狐仙", "category": "intrattenimento", "lat": 29.0560, "lng": 110.4820, "stars": 4, "booking": "consigliata", "blurb": "Spettacolo serale ai piedi di Tianmen." },
  { "id": "charming-xiangxi", "city": "zhangjiajie", "name": "Charming Xiangxi", "nameLocal": "魅力湘西", "category": "intrattenimento", "lat": 29.3450, "lng": 110.5470, "stars": 4, "blurb": "Show di cultura Tujia a Wulingyuan." },
  { "id": "sanxiaguo", "city": "zhangjiajie", "name": "Sanxiaguo", "nameLocal": "三下锅", "category": "cibo", "lat": 29.1170, "lng": 110.4790, "stars": 4, "blurb": "Piatto Tujia 'tre in pentola'." },

  { "id": "forbidden-city", "city": "pechino", "name": "Città Proibita", "nameLocal": "故宫", "category": "storico", "lat": 39.9163, "lng": 116.3972, "price": "60 ¥", "stars": 5, "booking": "obbligatoria — fascia oraria, esaurisce giorni prima", "blurb": "Palazzo imperiale con migliaia di stanze — prenota la fascia d'ingresso." },
  { "id": "mutianyu", "city": "pechino", "name": "Muraglia di Mutianyu", "nameLocal": "慕田峪长城", "category": "storico", "lat": 40.4319, "lng": 116.5704, "price": "45 ¥ + navetta", "stars": 5, "booking": "consigliata", "blurb": "Tra i tratti più scenici e meno affollati; telecabina e toboga opzionale." },
  { "id": "temple-heaven", "city": "pechino", "name": "Tempio del Cielo", "nameLocal": "天坛", "category": "storico", "lat": 39.8822, "lng": 116.4066, "price": "34 ¥", "stars": 4, "blurb": "Dove l'imperatore pregava per il raccolto; parco vivace all'alba." },
  { "id": "summer-palace", "city": "pechino", "name": "Palazzo d'Estate", "nameLocal": "颐和园", "category": "storico", "lat": 39.9999, "lng": 116.2755, "price": "30 ¥", "stars": 5, "blurb": "Giardini imperiali e lago Kunming — passeggiata di mezza giornata." },
  { "id": "lama-temple", "city": "pechino", "name": "Lama Temple (Yonghegong)", "nameLocal": "雍和宫", "category": "storico", "lat": 39.9475, "lng": 116.4117, "price": "25 ¥", "stars": 4, "blurb": "Tempio buddista tibetano ancora attivo, con un buddha gigante in sandalo." },
  { "id": "798", "city": "pechino", "name": "798 Art District", "nameLocal": "798艺术区", "category": "moderno", "lat": 39.9842, "lng": 116.4954, "stars": 4, "blurb": "Ex fabbriche Bauhaus diventate gallerie e caffè." },
  { "id": "acrobats", "city": "pechino", "name": "Acrobati (Chaoyang Theatre)", "nameLocal": "朝阳剧场杂技", "category": "intrattenimento", "lat": 39.9240, "lng": 116.4640, "stars": 4, "booking": "consigliata", "blurb": "Acrobazie cinesi classiche — spettacolo serale alla Chaoyang Theatre." },
  { "id": "siji-minfu", "city": "pechino", "name": "Siji Minfu (anatra laccata)", "nameLocal": "四季民福烤鸭", "category": "cibo", "lat": 39.9150, "lng": 116.4010, "stars": 5, "blurb": "Anatra alla pechinese con vista sulla Città Proibita." },
  { "id": "dadong", "city": "pechino", "name": "Da Dong (anatra laccata)", "nameLocal": "大董烤鸭", "category": "cibo", "lat": 39.9230, "lng": 116.4340, "stars": 4, "blurb": "Anatra laccata in chiave gourmet — croccante fuori, meno unta del classico." },

  { "id": "bund", "city": "shanghai", "name": "Il Bund", "nameLocal": "外滩", "category": "moderno", "lat": 31.2397, "lng": 121.4900, "stars": 5, "blurb": "Skyline di Pudong illuminato di sera." },
  { "id": "yu-garden", "city": "shanghai", "name": "Yu Garden & Bazaar", "nameLocal": "豫园", "category": "storico", "lat": 31.2271, "lng": 121.4920, "price": "40 ¥", "stars": 4, "blurb": "Giardino Ming del 1559 e bazar affollato di snack e souvenir." },
  { "id": "shanghai-tower", "city": "shanghai", "name": "Shanghai Tower", "nameLocal": "上海中心大厦", "category": "moderno", "lat": 31.2336, "lng": 121.5057, "price": "~180 ¥", "stars": 4, "booking": "consigliata per l'osservatorio", "blurb": "Il grattacielo più alto della Cina — osservatorio a 546 m su Pudong." },
  { "id": "french-concession", "city": "shanghai", "name": "Concessione Francese (Tianzifang)", "nameLocal": "田子坊", "category": "intrattenimento", "lat": 31.2100, "lng": 121.4660, "stars": 4, "blurb": "Vicoli coloniali, gallerie e caffè — Tianzifang e la vecchia Concessione." },
  { "id": "huangpu-cruise", "city": "shanghai", "name": "Crociera sull'Huangpu", "nameLocal": "黄浦江游船", "category": "intrattenimento", "lat": 31.2400, "lng": 121.4915, "stars": 4, "blurb": "Giro serale sul fiume tra il Bund coloniale e lo skyline di Pudong." },
  { "id": "suzhou", "city": "shanghai", "name": "Suzhou (gita)", "nameLocal": "苏州", "category": "natura", "lat": 31.2990, "lng": 120.5853, "stars": 5, "blurb": "Giardini classici e canali, ~30 min in treno AV." },
  { "id": "era", "city": "shanghai", "name": "ERA — Intersection of Time", "nameLocal": "时空之旅", "category": "intrattenimento", "lat": 31.2790, "lng": 121.4640, "stars": 5, "booking": "consigliata", "blurb": "Acrobazie spettacolari allo Shanghai Circus World." },
  { "id": "nanxiang", "city": "shanghai", "name": "Nanxiang Steamed Bun", "nameLocal": "南翔馒头店", "category": "cibo", "lat": 31.2271, "lng": 121.4920, "stars": 4, "blurb": "Gli xiaolongbao storici allo Yu Garden." },
  { "id": "yangs", "city": "shanghai", "name": "Yang's Fried Dumplings", "nameLocal": "小杨生煎", "category": "cibo", "lat": 31.2340, "lng": 121.4760, "stars": 4, "blurb": "Sheng jian bao croccanti." },
  { "id": "wenshu-monastery", "city": "chengdu", "name": "Monastero Wenshu", "nameLocal": "文殊院", "category": "storico", "lat": 30.6745, "lng": 104.0708, "price": "gratis · sala tè ~20 ¥", "stars": 4, "blurb": "Il più grande monastero buddhista di Chengdu: 300+ statue e una celebre casa da tè con artisti folk. Ristorante vegetariano." },
  { "id": "jinsha-museum", "city": "chengdu", "name": "Museo del Sito di Jinsha", "nameLocal": "金沙遗址博物馆", "category": "storico", "lat": 30.6813, "lng": 104.0130, "price": "~70 ¥", "stars": 4, "blurb": "Sito archeologico della civiltà Shu (Età del Bronzo): l'Uccello-Sole d'oro, oro, giada e avorio. Chiuso il lunedì." },
  { "id": "dufu-cottage", "city": "chengdu", "name": "Casa di Du Fu", "nameLocal": "杜甫草堂", "category": "storico", "lat": 30.6640, "lng": 104.0270, "price": "~50 ¥", "stars": 4, "blurb": "Casa-museo del poeta Du Fu tra giardini classici e bambù." },
  { "id": "leshan-buddha", "city": "chengdu", "name": "Grande Buddha di Leshan", "nameLocal": "乐山大佛", "category": "natura", "lat": 29.5450, "lng": 103.7717, "price": "~80 ¥ + barca", "stars": 5, "booking": "gita in giornata — treno AV ~1h", "blurb": "Il Buddha di pietra più grande del mondo (71 m, 713 d.C.), UNESCO. Scala a strapiombo o barca per la vista frontale; 2-3h in loco." },
  { "id": "dujiangyan", "city": "chengdu", "name": "Dujiangyan & Monte Qingcheng", "nameLocal": "都江堰·青城山", "category": "storico", "lat": 31.0136, "lng": 103.6144, "price": "~80 ¥", "stars": 4, "booking": "gita in giornata — treno ~40 min", "blurb": "UNESCO: l'antico sistema d'irrigazione (256 a.C.) e il monte taoista di Qingcheng." },
  { "id": "taikoo-li", "city": "chengdu", "name": "Sino-Ocean Taikoo Li", "nameLocal": "远洋太古里", "category": "moderno", "lat": 30.6519, "lng": 104.0817, "stars": 4, "blurb": "Distretto shopping/lifestyle attorno al Tempio Daci, col celebre panda arrampicato sull'IFS. Accanto al vostro hotel." },
  { "id": "dazu-carvings", "city": "chongqing", "name": "Sculture Rupestri di Dazu", "nameLocal": "大足石刻", "category": "storico", "lat": 29.7050, "lng": 105.7210, "price": "~115 ¥", "stars": 5, "booking": "gita in giornata — ~1,5-2h", "blurb": "UNESCO: 50.000+ sculture rupestri buddhiste, taoiste e confuciane (IX-XIII sec), tra le meglio conservate della Cina." },
  { "id": "three-gorges-museum", "city": "chongqing", "name": "Museo delle Tre Gole", "nameLocal": "重庆中国三峡博物馆", "category": "storico", "lat": 29.5590, "lng": 106.5540, "price": "gratis", "stars": 4, "blurb": "Storia delle Tre Gole e di Chongqing, di fronte alla Grande Sala del Popolo. Chiuso il lunedì." },
  { "id": "great-hall-cq", "city": "chongqing", "name": "Grande Sala del Popolo", "nameLocal": "重庆人民大礼堂", "category": "storico", "lat": 29.5583, "lng": 106.5561, "price": "piazza gratis · interno ~10 ¥", "stars": 4, "blurb": "Imponente sala in stile Tempio del Cielo (1954) e vasta piazza; spettacolare illuminata di sera." },
  { "id": "shibati", "city": "chongqing", "name": "Shibati (Diciotto Scale)", "nameLocal": "十八梯", "category": "storico", "lat": 29.5527, "lng": 106.5722, "price": "gratis", "stars": 4, "blurb": "Antico quartiere di scalinate restaurato: botteghe e street food, scorci della vecchia Chongqing. Vicino a Jiefangbei." },
  { "id": "nanshan-tree", "city": "chongqing", "name": "Belvedere Nanshan (Un Albero)", "nameLocal": "南山一棵树观景台", "category": "moderno", "lat": 29.5361, "lng": 106.5989, "price": "~30 ¥", "stars": 4, "blurb": "La miglior vista panoramica notturna su skyline e fiumi. Andateci al tramonto." },
  { "id": "arhat-temple", "city": "chongqing", "name": "Tempio Luohan", "nameLocal": "罗汉寺", "category": "storico", "lat": 29.5636, "lng": 106.5806, "price": "~10 ¥", "stars": 3, "blurb": "Tempio buddhista tra i grattacieli, con centinaia di statue di arhat." },
  { "id": "bailong-elevator", "city": "zhangjiajie", "name": "Ascensore Bailong", "nameLocal": "百龙天梯", "category": "moderno", "lat": 29.3560, "lng": 110.4790, "price": "~72 ¥ (nel parco)", "stars": 4, "blurb": "Ascensore di vetro: 326 m su parete verticale in <2 min, sbuca a Yuanjiajie tra i pilastri di Avatar. Code lunghe: presto al mattino." },
  { "id": "tianzi-mountain", "city": "zhangjiajie", "name": "Monte Tianzi", "nameLocal": "天子山", "category": "natura", "lat": 29.3720, "lng": 110.4470, "price": "cabinovia ~72 ¥", "stars": 5, "blurb": "Piattaforme con panorami a 360° sul 'mare di picchi'. Parte di Wulingyuan." },
  { "id": "baofeng-lake", "city": "zhangjiajie", "name": "Lago Baofeng", "nameLocal": "宝峰湖", "category": "natura", "lat": 29.3350, "lng": 110.5170, "price": "~96 ¥", "stars": 4, "blurb": "Lago smeraldo tra le scogliere, gita in barca con canti folk Tujia. UNESCO." },
  { "id": "huanglong-cave", "city": "zhangjiajie", "name": "Grotta del Drago Giallo", "nameLocal": "黄龙洞", "category": "natura", "lat": 29.4030, "lng": 110.5720, "price": "~100 ¥", "stars": 4, "blurb": "Enorme grotta carsica con fiumi e laghi sotterranei e stalattiti illuminate; giro in barca." },
  { "id": "furong-town", "city": "zhangjiajie", "name": "Borgo Antico di Furong", "nameLocal": "芙蓉镇", "category": "storico", "lat": 28.7350, "lng": 109.9990, "price": "~100 ¥", "stars": 4, "booking": "gita — ~1,5h", "blurb": "Borgo Tujia di 2000 anni su una cascata di 60 m, palafitte; magico illuminato di sera." },
  { "id": "tiananmen-square", "city": "pechino", "name": "Piazza Tian'anmen", "nameLocal": "天安门广场", "category": "storico", "lat": 39.9055, "lng": 116.3976, "price": "gratis", "stars": 4, "booking": "prenotazione online + passaporto", "blurb": "La piazza più grande del mondo: Porta Tian'anmen, Mausoleo di Mao, Monumento agli Eroi." },
  { "id": "jingshan-park", "city": "pechino", "name": "Parco Jingshan", "nameLocal": "景山公园", "category": "natura", "lat": 39.9280, "lng": 116.3900, "price": "~2 ¥", "stars": 5, "blurb": "Collina a nord della Città Proibita: dalla cima la vista migliore sui tetti dorati. Al tramonto." },
  { "id": "beihai-park", "city": "pechino", "name": "Parco Beihai", "nameLocal": "北海公园", "category": "storico", "lat": 39.9250, "lng": 116.3890, "price": "~10 ¥", "stars": 4, "blurb": "Antico giardino imperiale (1000 anni): lago, Pagoda Bianca e Muro dei Nove Draghi." },
  { "id": "nanluoguxiang", "city": "pechino", "name": "Hutong di Nanluoguxiang", "nameLocal": "南锣鼓巷", "category": "storico", "lat": 39.9370, "lng": 116.4030, "price": "gratis", "stars": 4, "blurb": "Il più famoso hutong di Pechino (740 anni): vicoli, botteghe, snack e giro in risciò." },
  { "id": "houhai", "city": "pechino", "name": "Laghi di Houhai", "nameLocal": "后海", "category": "intrattenimento", "lat": 39.9410, "lng": 116.3840, "price": "gratis", "stars": 4, "blurb": "Laghi con bar street e vicoli storici; barche d'estate, pattinaggio d'inverno. Vita notturna." },
  { "id": "olympic-park", "city": "pechino", "name": "Parco Olimpico (Nido d'Uccello)", "nameLocal": "奥林匹克公园·鸟巢", "category": "moderno", "lat": 39.9928, "lng": 116.3975, "price": "esterno gratis", "stars": 4, "blurb": "Nido d'Uccello e Cubo d'Acqua del 2008; spettacolari illuminati di sera." },
  { "id": "national-museum", "city": "pechino", "name": "Museo Nazionale della Cina", "nameLocal": "中国国家博物馆", "category": "storico", "lat": 39.9040, "lng": 116.4010, "price": "gratis", "stars": 4, "booking": "prenotazione online", "blurb": "Sul lato est di Tian'anmen: una delle collezioni di storia cinese più vaste al mondo. Chiuso il lunedì." },
  { "id": "nanjing-road", "city": "shanghai", "name": "Nanjing Road", "nameLocal": "南京路步行街", "category": "moderno", "lat": 31.2358, "lng": 121.4757, "price": "gratis", "stars": 4, "blurb": "La via dello shopping più celebre della Cina, dal Bund a People's Square; neon di sera." },
  { "id": "jingan-temple", "city": "shanghai", "name": "Tempio Jing'an", "nameLocal": "静安寺", "category": "storico", "lat": 31.2240, "lng": 121.4450, "price": "~50 ¥", "stars": 4, "blurb": "Tempio dai tetti dorati in pieno centro (780+ anni), tra i grattacieli." },
  { "id": "oriental-pearl", "city": "shanghai", "name": "Oriental Pearl Tower", "nameLocal": "东方明珠", "category": "moderno", "lat": 31.2397, "lng": 121.4998, "price": "~160 ¥", "stars": 4, "booking": "consigliata", "blurb": "Torre TV iconica di Pudong (468 m): pavimento di vetro e vista a 360°. Magica di notte." },
  { "id": "xintiandi", "city": "shanghai", "name": "Xintiandi", "nameLocal": "新天地", "category": "intrattenimento", "lat": 31.2205, "lng": 121.4750, "price": "gratis", "stars": 4, "blurb": "Isolato di case shikumen restaurate: caffè, ristoranti e vita notturna di charme." },
  { "id": "shanghai-museum", "city": "shanghai", "name": "Museo di Shanghai", "nameLocal": "上海博物馆", "category": "storico", "lat": 31.2286, "lng": 121.4753, "price": "gratis", "stars": 5, "blurb": "'Metà della storia dell'arte cinese': bronzi, ceramiche e calligrafia a People's Square. Chiuso il lunedì." },
  { "id": "zhujiajiao", "city": "shanghai", "name": "Borgo d'Acqua di Zhujiajiao", "nameLocal": "朱家角", "category": "storico", "lat": 31.1110, "lng": 121.0530, "price": "~30 ¥", "stars": 4, "booking": "gita — ~1h", "blurb": "Borgo d'acqua di 1700 anni: ponti in pietra e canali, alternativa più vicina di Suzhou." },
  { "id": "wukang-road", "city": "shanghai", "name": "Wukang Road", "nameLocal": "武康路", "category": "storico", "lat": 31.2100, "lng": 121.4340, "price": "gratis", "stars": 4, "blurb": "Strada di platani e ville art déco (il Wukang Mansion a prua di nave); passeggiata nella vecchia Concessione Francese." }
]
