[
  { "id": "panda-base", "city": "chengdu", "name": "Base Ricerca Panda", "nameLocal": "成都大熊猫繁育研究基地", "category": "natura", "lat": 30.7333, "lng": 104.1456, "price": "~55 ¥ + navetta", "stars": 5, "booking": "obbligatoria — fascia oraria", "blurb": "Panda giganti e rossi nella foresta di bambù. Andateci all'apertura." },
  { "id": "jinli", "city": "chengdu", "name": "Jinli Ancient Street", "nameLocal": "锦里", "category": "storico", "lat": 30.6419, "lng": 104.0480, "stars": 4, "blurb": "Via storica di street food e teahouse, splendida con le lanterne. Accanto al Tempio di Wuhou." },
  { "id": "wuhou", "city": "chengdu", "name": "Tempio di Wuhou", "nameLocal": "武侯祠", "category": "storico", "lat": 30.6464, "lng": 104.0480, "price": "50 ¥", "stars": 4, "blurb": "Memoriale dei Tre Regni, adiacente a Jinli." },
  { "id": "kuanzhai", "city": "chengdu", "name": "Kuanzhai Xiangzi", "nameLocal": "宽窄巷子", "category": "storico", "lat": 30.6695, "lng": 104.0556, "stars": 4, "blurb": "Tre vicoli Qing restaurati: caffè, snack e pulizia delle orecchie." },
  { "id": "renmin-park", "city": "chengdu", "name": "People's Park (Heming Teahouse)", "nameLocal": "人民公园·鹤鸣茶社", "category": "intrattenimento", "lat": 30.6700, "lng": 104.0617, "stars": 4, "blurb": "Tè al gelsomino tra anziani che giocano a mahjong: la vita lenta di Chengdu." },
  { "id": "opera-sichuan", "city": "chengdu", "name": "Opera del Sichuan @ Shufeng Yayun", "nameLocal": "川剧·蜀风雅韵", "category": "intrattenimento", "lat": 30.6726, "lng": 104.0533, "stars": 5, "booking": "consigliata", "blurb": "Cambio di maschere (bian lian), sputafuoco e marionette. ~20:00." },
  { "id": "chen-mapo", "city": "chengdu", "name": "Chen Mapo Tofu", "nameLocal": "陈麻婆豆腐", "category": "cibo", "lat": 30.6798, "lng": 104.0588, "stars": 4, "blurb": "La sede storica del mapo tofu." },
  { "id": "bobo-hotpot-cd", "city": "chengdu", "name": "Hotpot sichuanese", "nameLocal": "四川火锅", "category": "cibo", "lat": 30.6580, "lng": 104.0700, "stars": 4, "blurb": "Il málà che intorpidisce le labbra — esperienza obbligata." },

  { "id": "hongya", "city": "chongqing", "name": "Hongya Cave", "nameLocal": "洪崖洞", "category": "moderno", "lat": 29.5615, "lng": 106.5830, "stars": 5, "booking": "gratis — affollatissima di sera", "blurb": "Stile Spirited Away, da vedere all'imbrunire." },
  { "id": "raffles", "city": "chongqing", "name": "Raffles City — Exploration Deck", "nameLocal": "来福士探索舱", "category": "moderno", "lat": 29.5667, "lng": 106.5894, "stars": 4, "blurb": "Il 'Crystal' sospeso a Chaotianmen, vista sui due fiumi." },
  { "id": "liziba", "city": "chongqing", "name": "Stazione di Liziba", "nameLocal": "李子坝站", "category": "moderno", "lat": 29.5550, "lng": 106.5160, "stars": 4, "blurb": "La metro che attraversa un palazzo." },
  { "id": "cableway-cq", "city": "chongqing", "name": "Yangtze River Cableway", "nameLocal": "长江索道", "category": "moderno", "lat": 29.5566, "lng": 106.5839, "price": "30 ¥", "stars": 4, "blurb": "Cabinovia sopra il fiume Yangtze." },
  { "id": "ciqikou", "city": "chongqing", "name": "Ciqikou Old Town", "nameLocal": "磁器口古镇", "category": "storico", "lat": 29.5800, "lng": 106.4480, "stars": 4, "blurb": "Borgo Ming su un promontorio: vicoli in pietra, street food e ceramiche." },
  { "id": "cruise-cq", "city": "chongqing", "name": "Crociera Due Fiumi", "nameLocal": "两江游船", "category": "intrattenimento", "lat": 29.5667, "lng": 106.5894, "stars": 4, "blurb": "Giro serale sui due fiumi con lo skyline illuminato." },
  { "id": "pei-jie", "city": "chongqing", "name": "Pei Jie Lao Huoguo", "nameLocal": "佩姐老火锅", "category": "cibo", "lat": 29.5530, "lng": 106.5760, "stars": 5, "blurb": "Hotpot leggendario — code lunghe." },
  { "id": "xiaoyadong", "city": "chongqing", "name": "Xiaoyadong Hotpot", "nameLocal": "小雅东火锅", "category": "cibo", "lat": 29.5500, "lng": 106.5700, "stars": 4, "blurb": "Hotpot in grotta sotto la strada — atmosfera autentica, meno turistica." },
  { "id": "bayi", "city": "chongqing", "name": "Bayi Food Street (Jiefangbei)", "nameLocal": "八一好吃街", "category": "cibo", "lat": 29.5570, "lng": 106.5770, "stars": 4, "blurb": "Street food nel cuore di Jiefangbei." },

  { "id": "avatar-park", "city": "zhangjiajie", "name": "National Forest Park (montagne Avatar)", "nameLocal": "张家界国家森林公园", "category": "natura", "lat": 29.3150, "lng": 110.4340, "price": "~225 ¥ (multi-giorno)", "stars": 5, "booking": "obbligatoria — biglietto a tempo + navette", "blurb": "Pilastri di arenaria nella nebbia — il paesaggio che ha ispirato Avatar." },
  { "id": "tianmen", "city": "zhangjiajie", "name": "Tianmen Mountain (Porta del Paradiso)", "nameLocal": "天门山", "category": "natura", "lat": 29.0500, "lng": 110.4790, "price": "~275 ¥", "stars": 5, "booking": "obbligatoria — fascia per la funivia", "blurb": "Funivia record e arco nella roccia: la Porta del Paradiso a 1.300 m." },
  { "id": "glass-bridge", "city": "zhangjiajie", "name": "Grand Canyon & Glass Bridge", "nameLocal": "张家界大峡谷玻璃桥", "category": "natura", "lat": 29.3760, "lng": 110.5560, "stars": 4, "booking": "obbligatoria — slot a tempo", "blurb": "Ponte di vetro sospeso sul canyon — solo per chi regge le vertigini." },
  { "id": "foxfairy", "city": "zhangjiajie", "name": "Tianmen Fox Fairy Show", "nameLocal": "天门狐仙", "category": "intrattenimento", "lat": 29.0560, "lng": 110.4820, "stars": 4, "booking": "consigliata", "blurb": "Spettacolo serale ai piedi di Tianmen." },
  { "id": "charming-xiangxi", "city": "zhangjiajie", "name": "Charming Xiangxi", "nameLocal": "魅力湘西", "category": "intrattenimento", "lat": 29.3450, "lng": 110.5470, "stars": 4, "blurb": "Show di cultura Tujia a Wulingyuan." },
  { "id": "sanxiaguo", "city": "zhangjiajie", "name": "Sanxiaguo", "nameLocal": "三下锅", "category": "cibo", "lat": 29.1170, "lng": 110.4790, "stars": 4, "blurb": "Piatto Tujia 'tre in pentola'." },

  { "id": "forbidden-city", "city": "pechino", "name": "Città Proibita", "nameLocal": "故宫", "category": "storico", "lat": 39.9163, "lng": 116.3972, "price": "60 ¥", "stars": 5, "booking": "obbligatoria — fascia oraria, esaurisce giorni prima", "blurb": "Palazzo imperiale con migliaia di stanze — prenota la fascia d'ingresso." },
  { "id": "mutianyu", "city": "pechino", "name": "Muraglia di Mutianyu", "nameLocal": "慕田峪长城", "category": "storico", "lat": 40.4319, "lng": 116.5704, "price": "45 ¥ + navetta", "stars": 5, "booking": "consigliata", "blurb": "Tra i tratti più scenici e meno affollati; telecabina e toboga opzionale." },
  { "id": "temple-heaven", "city": "pechino", "name": "Tempio del Cielo", "nameLocal": "天坛", "category": "storico", "lat": 39.8822, "lng": 116.4066, "price": "34 ¥", "stars": 4, "blurb": "Dove l'imperatore pregava per il raccolto; parco vivace all'alba." },
  { "id": "summer-palace", "city": "pechino", "name": "Palazzo d'Estate", "nameLocal": "颐和园", "category": "storico", "lat": 39.9999, "lng": 116.2755, "price": "30 ¥", "stars": 5, "blurb": "Giardini imperiali e lago Kunming — passeggiata di mezza giornata." },
  { "id": "lama-temple", "city": "pechino", "name": "Lama Temple (Yonghegong)", "nameLocal": "雍和宫", "category": "storico", "lat": 39.9475, "lng": 116.4117, "price": "25 ¥", "stars": 4, "blurb": "Tempio buddista tibetano ancora attivo, con un buddha gigante in sandalo." },
  { "id": "798", "city": "pechino", "name": "798 Art District", "nameLocal": "798艺术区", "category": "moderno", "lat": 39.9842, "lng": 116.4954, "stars": 4, "blurb": "Ex fabbriche Bauhaus diventate gallerie e caffè." },
  { "id": "acrobats", "city": "pechino", "name": "Acrobati (Chaoyang Theatre)", "nameLocal": "朝阳剧场杂技", "category": "intrattenimento", "lat": 39.9240, "lng": 116.4640, "stars": 4, "booking": "consigliata", "blurb": "Acrobazie cinesi classiche — spettacolo serale alla Chaoyang Theatre." },
  { "id": "siji-minfu", "city": "pechino", "name": "Siji Minfu (anatra laccata)", "nameLocal": "四季民福烤鸭", "category": "cibo", "lat": 39.9150, "lng": 116.4010, "stars": 5, "blurb": "Anatra alla pechinese con vista sulla Città Proibita." },
  { "id": "dadong", "city": "pechino", "name": "Da Dong (anatra laccata)", "nameLocal": "大董烤鸭", "category": "cibo", "lat": 39.9230, "lng": 116.4340, "stars": 4, "blurb": "Anatra laccata in chiave gourmet — croccante fuori, meno unta del classico." },

  { "id": "bund", "city": "shanghai", "name": "Il Bund", "nameLocal": "外滩", "category": "moderno", "lat": 31.2397, "lng": 121.4900, "stars": 5, "blurb": "Skyline di Pudong illuminato di sera." },
  { "id": "yu-garden", "city": "shanghai", "name": "Yu Garden & Bazaar", "nameLocal": "豫园", "category": "storico", "lat": 31.2271, "lng": 121.4920, "price": "40 ¥", "stars": 4, "blurb": "Giardino Ming del 1559 e bazar affollato di snack e souvenir." },
  { "id": "shanghai-tower", "city": "shanghai", "name": "Shanghai Tower", "nameLocal": "上海中心大厦", "category": "moderno", "lat": 31.2336, "lng": 121.5057, "price": "~180 ¥", "stars": 4, "booking": "consigliata per l'osservatorio", "blurb": "Il grattacielo più alto della Cina — osservatorio a 546 m su Pudong." },
  { "id": "french-concession", "city": "shanghai", "name": "Concessione Francese (Tianzifang)", "nameLocal": "田子坊", "category": "intrattenimento", "lat": 31.2100, "lng": 121.4660, "stars": 4, "blurb": "Vicoli coloniali, gallerie e caffè — Tianzifang e la vecchia Concessione." },
  { "id": "huangpu-cruise", "city": "shanghai", "name": "Crociera sull'Huangpu", "nameLocal": "黄浦江游船", "category": "intrattenimento", "lat": 31.2400, "lng": 121.4915, "stars": 4, "blurb": "Giro serale sul fiume tra il Bund coloniale e lo skyline di Pudong." },
  { "id": "suzhou", "city": "shanghai", "name": "Suzhou (gita)", "nameLocal": "苏州", "category": "natura", "lat": 31.2990, "lng": 120.5853, "stars": 5, "blurb": "Giardini classici e canali, ~30 min in treno AV." },
  { "id": "era", "city": "shanghai", "name": "ERA — Intersection of Time", "nameLocal": "时空之旅", "category": "intrattenimento", "lat": 31.2790, "lng": 121.4640, "stars": 5, "booking": "consigliata", "blurb": "Acrobazie spettacolari allo Shanghai Circus World." },
  { "id": "nanxiang", "city": "shanghai", "name": "Nanxiang Steamed Bun", "nameLocal": "南翔馒头店", "category": "cibo", "lat": 31.2271, "lng": 121.4920, "stars": 4, "blurb": "Gli xiaolongbao storici allo Yu Garden." },
  { "id": "yangs", "city": "shanghai", "name": "Yang's Fried Dumplings", "nameLocal": "小杨生煎", "category": "cibo", "lat": 31.2340, "lng": 121.4760, "stars": 4, "blurb": "Sheng jian bao croccanti." }
]
